[{"name":"PeekYou","city":"New York","geo":{"type":"Point","coordinates":[-73.985506,40.757929]},"money":165596700.0,"category_code":"search"},{"name":"GENWI","city":"Los Altos","geo":{"type":"Point","coordinates":[-111.9035,33.8171]},"money":64247900.0,"category_code":"mobile"},{"name":"Fixya","city":"San Mateo","geo":{"type":"Point","coordinates":[-122.323895,37.566879]},"money":7239200.0,"category_code":"web"},{"name":"Widgetbox","city":"San Francisco","geo":{"type":"Point","coordinates":[-122.398599,37.798853]},"money":131210500.0,"category_code":"other"},{"name":"RazorGator","city":"Los Angeles","geo":{"type":"Point","coordinates":[-118.445243,34.047312]},"money":532081199.9999999404,"category_code":"ecommerce"},{"name":"Social Gaming Network","city":"Beverly Hills","geo":{"type":"Point","coordinates":[-122.161523,37.446823]},"money":154737900.0,"category_code":"games_video"},{"name":"Skydeck","city":"Palo Alto","geo":{"type":"Point","coordinates":[-122.3254705,37.5645375]},"money":3619600.0,"category_code":"mobile"},{"name":"Moblica","city":"Tel Aviv","geo":{"type":"Point","coordinates":[34.7595,32.0554]},"money":5429400.0,"category_code":"mobile"},{"name":"Magento","city":"Los Angeles","geo":{"type":"Point","coordinates":[-118.243425,34.052187]},"money":203602500.0000000298,"category_code":"ecommerce"},{"name":"Pixsta","city":"London","geo":{"type":"Point","coordinates":[-0.208979,51.51819]},"money":3389478.0,"category_code":"web"},{"name":"BrandYourself","city":"New York","geo":{"type":"Point","coordinates":[-71.24762,42.275263]},"money":13573500.0000000019,"category_code":"web"},{"name":"Prezi","city":"San Francisco","geo":{"type":"Point","coordinates":[19.059078,47.490346]},"money":129400700.0,"category_code":"software"},{"name":"GetYourGuide","city":"Las Vegas","geo":{"type":"Point","coordinates":[8.5082891,47.3912899]},"money":14478400.0,"category_code":"travel"},{"name":"Integrate","city":"Hopkinton","geo":{"type":"Point","coordinates":[-74.0353787,40.7481039]},"money":314905200.0000000596,"category_code":"software"},{"name":"UsingMiles","city":"Denver","geo":{"type":"Point","coordinates":[-104.9998449,39.749671]},"money":295902300.0,"category_code":"travel"},{"name":"Burt","city":"Gothenburg","geo":{"type":"Point","coordinates":[18.036587,59.337864]},"money":31671500.0,"category_code":"advertising"},{"name":"Inuvo","city":"Clearwater","geo":{"type":"Point","coordinates":[-82.702449,27.913011]},"money":38005800.0,"category_code":"advertising"},{"name":"Integrate","city":"Hopkinton","geo":{"type":"Point","coordinates":[-74.0353787,40.7481039]},"money":314905200.0000000596,"category_code":"software"},{"name":"UsingMiles","city":"Denver","geo":{"type":"Point","coordinates":[-104.9998449,39.749671]},"money":295902300.0,"category_code":"travel"},{"name":"Burt","city":"Gothenburg","geo":{"type":"Point","coordinates":[18.036587,59.337864]},"money":31671500.0,"category_code":"advertising"},{"name":"Inuvo","city":"Clearwater","geo":{"type":"Point","coordinates":[-82.702449,27.913011]},"money":38005800.0,"category_code":"advertising"},{"name":"Formspring","city":"San Francisco","geo":{"type":"Point","coordinates":[-86.0547016,39.9052263]},"money":129400700.0,"category_code":"web"},{"name":"isocket","city":"Burlingame","geo":{"type":"Point","coordinates":[-122.321836,37.55909]},"money":91394900.0,"category_code":"advertising"},{"name":"Yipit","city":"New York","geo":{"type":"Point","coordinates":[-73.987764,40.744618]},"money":683199500.0,"category_code":"web"},{"name":"StudyBlue","city":"Madison","geo":{"type":"Point","coordinates":[-89.39256,43.068006]},"money":167406500.0,"category_code":"education"},{"name":"HyperWeek","city":"Geneva","geo":{"type":"Point","coordinates":[6.1503245,46.2121463]},"money":118541900.0,"category_code":"social"},{"name":"FeedHenry","city":"Burlington","geo":{"type":"Point","coordinates":[-71.2089211,42.4851017]},"money":8144100.0,"category_code":"enterprise"},{"name":"Jolicloud","city":"Paris","geo":{"type":"Point","coordinates":[2.3509871,48.8566667]},"money":38005800.0,"category_code":"enterprise"},{"name":"ScaleMP","city":"Cupertino","geo":{"type":"Point","coordinates":[-122.0385792,37.3229727]},"money":7239200.0,"category_code":"software"},{"name":"VisualOn","city":"Santa Clara","geo":{"type":"Point","coordinates":[-121.955879,37.270518]},"money":28051900.0,"category_code":"software"},{"name":"Heyzap","city":"San Francisco","geo":{"type":"Point","coordinates":[-122.4041485,37.7905538]},"money":721205300.0000001192,"category_code":"games_video"},{"name":"Meez","city":"San Francisco","geo":{"type":"Point","coordinates":[-122.397582,37.785271]},"money":92299800.0,"category_code":"hardware"},{"name":"Talari Networks","city":"Morrisville","geo":{"type":"Point","coordinates":[-121.949417,37.317735]},"money":408109900.0000000596,"category_code":"enterprise"},{"name":"Shutl","city":"London","geo":{"type":"Point","coordinates":[-0.1020265,51.5196135]},"money":865446716.0,"category_code":"ecommerce"},{"name":"Tinychat","city":"Glen Cove","geo":{"type":"Point","coordinates":[-72.5196907,42.3756409]},"money":13573500.0000000019,"category_code":"web"},{"name":"AppNeta","city":"SOUTH BOSTON","geo":{"type":"Point","coordinates":[-71.24756,42.318138]},"money":504934200.0000000596,"category_code":"software"},{"name":"AppZero","city":"Andover","geo":{"type":"Point","coordinates":[-71.1469003,42.6751888]},"money":136639900.0,"category_code":"software"},{"name":"MyLikes","city":"San Francisco","geo":{"type":"Point","coordinates":[-122.408914,37.777995]},"money":563752700.0,"category_code":"advertising"},{"name":"Cognitive Match","city":"Omaha","geo":{"type":"Point","coordinates":[-0.0936688,51.5119418]},"money":92299800.0,"category_code":"advertising"},{"name":"Simulmedia","city":"New York","geo":{"type":"Point","coordinates":[-73.994797,40.727216]},"money":518507700.0,"category_code":"advertising"},{"name":"Gridstore","city":"Mountain View","geo":{"type":"Point","coordinates":[-122.0884286,37.4189073]},"money":25000000.0,"category_code":"network_hosting"},{"name":"GameChanger Media","city":"New York","geo":{"type":"Point","coordinates":[-74.0136605,40.7078343]},"money":329383600.0,"category_code":"software"},{"name":"Z2Live","city":"Seattle","geo":{"type":"Point","coordinates":[-122.3399782,47.6103008]},"money":58818500.0,"category_code":"games_video"},{"name":"Tongal","city":"Santa Monica","geo":{"type":"Point","coordinates":[-118.489748,34.007112]},"money":14478400.0,"category_code":"web"},{"name":"oneforty","city":"Cambridge","geo":{"type":"Point","coordinates":[-71.101375,42.364014]},"money":212651500.0,"category_code":"enterprise"},{"name":"Chartbeat","city":"New York","geo":{"type":"Point","coordinates":[-73.990967,40.73343]},"money":131210500.0,"category_code":"analytics"},{"name":"Brandsclub","city":"Sao Paulo","geo":{"type":"Point","coordinates":[-46.6388182,-23.5489433]},"money":15383300.0,"category_code":"ecommerce"},{"name":"CoTweet","city":"San Francisco","geo":{"type":"Point","coordinates":[-122.3764714,37.7405936]},"money":9953900.0,"category_code":"advertising"},{"name":"MyEdu","city":"Austin","geo":{"type":"Point","coordinates":[-97.750154,30.288159]},"money":169216300.0000000298,"category_code":"education"},{"name":"Factery","city":"Menlo Park","geo":{"type":"Point","coordinates":[-122.1802812,37.4484914]},"money":10858800.0,"category_code":"web"},{"name":"Ikanos","city":"Fremont","geo":{"type":"Point","coordinates":[-121.9417078,37.4734314]},"money":38005800.0,"category_code":"enterprise"},{"name":"Infochimps","city":"Redwood City","geo":{"type":"Point","coordinates":[-97.7588828,30.2734822]},"money":484121500.0,"category_code":"enterprise"},{"name":"drchrono","city":"Mountain View","geo":{"type":"Point","coordinates":[-122.0933053,37.4202074]},"money":373723700.0,"category_code":"medical"},{"name":"Shareaholic","city":"Boston","geo":{"type":"Point","coordinates":[-71.1032591,42.3647559]},"money":494075400.0,"category_code":"web"},{"name":"Vaultive","city":"New York","geo":{"type":"Point","coordinates":[-74.011114,40.707954]},"money":9953900.0,"category_code":"security"},{"name":"The Resumator","city":"Pittsburgh","geo":{"type":"Point","coordinates":[-80.001933,40.438423]},"money":269660200.0000000596,"category_code":"software"},{"name":"Sofa Labs","city":"San Mateo","geo":{"type":"Point","coordinates":[-122.3229235,37.5646055]},"money":10858800.0,"category_code":"social"},{"name":"Fliptop","city":"San Francisco","geo":{"type":"Point","coordinates":[-122.419209,37.775206]},"money":614427100.0,"category_code":"enterprise"},{"name":"ClickFuel","city":"Burlington","geo":{"type":"Point","coordinates":[-71.0680027,42.3406534]},"money":8144100.0,"category_code":"advertising"},{"name":"Gravity","city":"Santa Monica","geo":{"type":"Point","coordinates":[-118.489681,34.007967]},"money":186409400.0,"category_code":"advertising"},{"name":"Althea Systems","city":"Bangalore","geo":{"type":"Point","coordinates":[77.6136847,12.9349604]},"money":2714700.0,"category_code":"hardware"},{"name":"VistaGen Therapeutics","city":"South San Francisco","geo":{"type":"Point","coordinates":[-122.3843489,37.6656476]},"money":373723700.0,"category_code":"biotech"},{"name":"ipadio","city":"London","geo":{"type":"Point","coordinates":[0.0118608,51.8205815]},"money":14478400.0,"category_code":"messaging"},{"name":"Applied Genetics Technologies Corporation","city":"Alachua","geo":{"type":"Point","coordinates":[-82.4768036,29.7847641]},"money":706726900.0,"category_code":"biotech"},{"name":"Ykone","city":"Paris","geo":{"type":"Point","coordinates":[2.3509871,48.8566667]},"money":15000000.0,"category_code":"web"},{"name":"Solix Biofuels","city":"Fort Collins","geo":{"type":"Point","coordinates":[-105.0766501,40.5932386]},"money":622571200.0,"category_code":"cleantech"},{"name":"Clovis Oncology","city":"Boulder","geo":{"type":"Point","coordinates":[-105.259041,40.026]},"money":323049300.0,"category_code":"biotech"},{"name":"Layar","city":"Amsterdam","geo":{"type":"Point","coordinates":[4.8928722,52.3657578]},"money":121256600.0,"category_code":"mobile"},{"name":"ticketea","city":"Madrid","geo":{"type":"Point","coordinates":[-3.7061764,40.4455155]},"money":518507700.0,"category_code":"ecommerce"},{"name":"Delphi","city":"","geo":{"type":"Point","coordinates":[-83.16134,42.603532]},"money":7239200.0,"category_code":"cleantech"},{"name":"ChallengePost","city":"New York","geo":{"type":"Point","coordinates":[-74.00717,40.7408042]},"money":41625400.0,"category_code":"web"},{"name":"Teambox","city":"Redwood City","geo":{"type":"Point","coordinates":[2.1920231,41.4063346]},"money":610807500.0,"category_code":"web"},{"name":"Tiny Speck","city":"Vancouver","geo":{"type":"Point","coordinates":[-123.109217,49.2824551]},"money":155642800.0,"category_code":"games_video"},{"name":"Advanced Power Projects","city":"Fremont","geo":{"type":"Point","coordinates":[-121.9178417,37.5252461]},"money":11763700.0,"category_code":"cleantech"},{"name":"Getyoo","city":"Brussels","geo":{"type":"Point","coordinates":[4.3464721,50.83997]},"money":113000000.0,"category_code":"mobile"}]