[{"name":"Social Gaming Network","city":"Beverly Hills","geo":{"type":"Point","coordinates":[-118.4054182,34.0698494]},"money":154566900.0,"category_code":"games_video","longitude":-118.4054182,"latitude":34.0698494,"point":{"companies_money":0.2,"technology_companies":0.2,"old_companies":0.2,"nursery":0.3,"vegan":0.2,"aeroport":0,"club":0.5,"starbucks":1}},{"name":"PeekYou","city":"New York","geo":{"type":"Point","coordinates":[-73.985506,40.757929]},"money":165413700.0,"category_code":"search","longitude":-73.985506,"latitude":40.757929,"point":{"companies_money":0.4,"technology_companies":0.2,"old_companies":0.4,"nursery":0.6,"vegan":1,"aeroport":0,"club":1,"starbucks":1}},{"name":"RazorGator","city":"Los Angeles","geo":{"type":"Point","coordinates":[-118.445243,34.047312]},"money":531493200.0,"category_code":"ecommerce","longitude":-118.445243,"latitude":34.047312,"point":{"companies_money":0.2,"technology_companies":0.2,"old_companies":0.2,"nursery":0.2,"vegan":0.6,"aeroport":0,"club":0.3,"starbucks":1}},{"name":"GENWI","city":"Los Altos","geo":{"type":"Point","coordinates":[-111.9035,33.8171]},"money":64176900.0,"category_code":"mobile","longitude":-111.9035,"latitude":33.8171,"point":{"companies_money":0.2,"technology_companies":0.2,"old_companies":0.2,"nursery":0.1,"vegan":0.1,"aeroport":0,"club":0.1,"starbucks":1}},{"name":"Social Gaming Network","city":"Los Angeles","geo":{"type":"Point","coordinates":[-122.161523,37.446823]},"money":154566900.0,"category_code":"games_video","longitude":-122.161523,"latitude":37.446823,"point":{"companies_money":0.3,"technology_companies":0.3,"old_companies":0.3,"nursery":0.4,"vegan":0.6,"aeroport":0,"club":0.3,"starbucks":1}},{"name":"Fixya","city":"San Mateo","geo":{"type":"Point","coordinates":[-122.323895,37.566879]},"money":7231200.0,"category_code":"web","longitude":-122.323895,"latitude":37.566879,"point":{"companies_money":0.5,"technology_companies":0.3,"old_companies":0.5,"nursery":0.4,"vegan":0.1,"aeroport":0,"club":0.2,"starbucks":1}},{"name":"Widgetbox","city":"San Francisco","geo":{"type":"Point","coordinates":[-122.398599,37.798853]},"money":131065500.0000000149,"category_code":"other","longitude":-122.398599,"latitude":37.798853,"point":{"companies_money":0.4,"technology_companies":0.2,"old_companies":0.4,"nursery":0.2,"vegan":1,"aeroport":0,"club":1,"starbucks":1}},{"name":"Moblica","city":"Tel Aviv","geo":{"type":"Point","coordinates":[34.7595,32.0554]},"money":5423400.0,"category_code":"mobile","longitude":34.7595,"latitude":32.0554,"point":{"companies_money":0.2,"technology_companies":0.2,"old_companies":0.2,"nursery":0.1,"vegan":0.5,"aeroport":0,"club":1,"starbucks":0.2}},{"name":"Magento","city":"Los Angeles","geo":{"type":"Point","coordinates":[-118.243425,34.052187]},"money":203377500.0,"category_code":"ecommerce","longitude":-118.243425,"latitude":34.052187,"point":{"companies_money":0.2,"technology_companies":0.2,"old_companies":0.2,"nursery":0.2,"vegan":0.8,"aeroport":0,"club":0.6,"starbucks":1}},{"name":"BrandYourself","city":"New York","geo":{"type":"Point","coordinates":[-71.24762,42.275263]},"money":13558500.0,"category_code":"web","longitude":-71.24762,"latitude":42.275263,"point":{"companies_money":0.2,"technology_companies":0.2,"old_companies":0.2,"nursery":0.1,"vegan":0.1,"aeroport":0,"club":0.1,"starbucks":1}},{"name":"Pixsta","city":"London","geo":{"type":"Point","coordinates":[-0.208979,51.51819]},"money":3407901.0,"category_code":"web","longitude":-0.208979,"latitude":51.51819,"point":{"companies_money":0.2,"technology_companies":0.2,"old_companies":0.2,"nursery":0.3,"vegan":0.5,"aeroport":0,"club":0.3,"starbucks":1}},{"name":"Skydeck","city":"Palo Alto","geo":{"type":"Point","coordinates":[-122.3254705,37.5645375]},"money":3615600.0,"category_code":"mobile","longitude":-122.3254705,"latitude":37.5645375,"point":{"companies_money":0.5,"technology_companies":0.3,"old_companies":0.5,"nursery":0.5,"vegan":0.1,"aeroport":0,"club":0.2,"starbucks":1}},{"name":"Prezi","city":"Budapest","geo":{"type":"Point","coordinates":[19.059078,47.490346]},"money":129257700.0,"category_code":"software","longitude":19.059078,"latitude":47.490346,"point":{"companies_money":0.2,"technology_companies":0.2,"old_companies":0.2,"nursery":0.6,"vegan":1,"aeroport":0,"club":1,"starbucks":0.7}},{"name":"Integrate","city":"Scottsdale","geo":{"type":"Point","coordinates":[-74.0353787,40.7481039]},"money":314557200.0,"category_code":"software","longitude":-74.0353787,"latitude":40.7481039,"point":{"companies_money":0.3,"technology_companies":0.3,"old_companies":0.3,"nursery":0.8,"vegan":0.5,"aeroport":0,"club":0.4,"starbucks":1}},{"name":"UsingMiles","city":"Denver","geo":{"type":"Point","coordinates":[-104.9998449,39.749671]},"money":295575300.0,"category_code":"travel","longitude":-104.9998449,"latitude":39.749671,"point":{"companies_money":0.3,"technology_companies":0,"old_companies":0.3,"nursery":0.1,"vegan":0.7,"aeroport":0,"club":1,"starbucks":1}},{"name":"Burt","city":"Gothenburg","geo":{"type":"Point","coordinates":[18.036587,59.337864]},"money":31636500.0,"category_code":"advertising","longitude":18.036587,"latitude":59.337864,"point":{"companies_money":0.3,"technology_companies":0,"old_companies":0.3,"nursery":0.3,"vegan":0.6,"aeroport":0,"club":0.6,"starbucks":1}},{"name":"UsingMiles","city":"Denver","geo":{"type":"Point","coordinates":[-104.9998449,39.749671]},"money":295575300.0,"category_code":"travel","longitude":-104.9998449,"latitude":39.749671,"point":{"companies_money":0.3,"technology_companies":0,"old_companies":0.3,"nursery":0.1,"vegan":0.7,"aeroport":0,"club":1,"starbucks":1}},{"name":"Inuvo","city":"Clearwater","geo":{"type":"Point","coordinates":[-82.702449,27.913011]},"money":37963800.0,"category_code":"advertising","longitude":-82.702449,"latitude":27.913011,"point":{"companies_money":0.3,"technology_companies":0,"old_companies":0.3,"nursery":0.1,"vegan":0.1,"aeroport":0,"club":0.1,"starbucks":1}},{"name":"Burt","city":"Gothenburg","geo":{"type":"Point","coordinates":[18.036587,59.337864]},"money":31636500.0,"category_code":"advertising","longitude":18.036587,"latitude":59.337864,"point":{"companies_money":0.3,"technology_companies":0,"old_companies":0.3,"nursery":0.3,"vegan":0.6,"aeroport":0,"club":0.6,"starbucks":1}},{"name":"Integrate","city":"Scottsdale","geo":{"type":"Point","coordinates":[-74.0353787,40.7481039]},"money":314557200.0,"category_code":"software","longitude":-74.0353787,"latitude":40.7481039,"point":{"companies_money":0.3,"technology_companies":0.3,"old_companies":0.3,"nursery":0.8,"vegan":0.5,"aeroport":0,"club":0.4,"starbucks":1}},{"name":"GetYourGuide","city":"Zurich","geo":{"type":"Point","coordinates":[8.5082891,47.3912899]},"money":14462400.0,"category_code":"travel","longitude":8.5082891,"latitude":47.3912899,"point":{"companies_money":0.2,"technology_companies":0,"old_companies":0.2,"nursery":0.5,"vegan":0.2,"aeroport":0,"club":1,"starbucks":1}},{"name":"Formspring","city":"San Francisco","geo":{"type":"Point","coordinates":[-86.0547016,39.9052263]},"money":129257700.0,"category_code":"web","longitude":-86.0547016,"latitude":39.9052263,"point":{"companies_money":0.2,"technology_companies":0.2,"old_companies":0.2,"nursery":0.2,"vegan":0.1,"aeroport":0,"club":0.2,"starbucks":1}},{"name":"isocket","city":"Burlingame","geo":{"type":"Point","coordinates":[-122.321836,37.55909]},"money":91293900.0000000149,"category_code":"advertising","longitude":-122.321836,"latitude":37.55909,"point":{"companies_money":0.5,"technology_companies":0.3,"old_companies":0.5,"nursery":0.5,"vegan":0.1,"aeroport":0,"club":0.2,"starbucks":1}},{"name":"Yipit","city":"New York","geo":{"type":"Point","coordinates":[-73.987764,40.744618]},"money":682444500.0000001192,"category_code":"web","longitude":-73.987764,"latitude":40.744618,"point":{"companies_money":0.6,"technology_companies":0.4,"old_companies":0.6,"nursery":1,"vegan":1,"aeroport":0,"club":1,"starbucks":1}},{"name":"Inuvo","city":"Clearwater","geo":{"type":"Point","coordinates":[-82.702449,27.913011]},"money":37963800.0,"category_code":"advertising","longitude":-82.702449,"latitude":27.913011,"point":{"companies_money":0.3,"technology_companies":0,"old_companies":0.3,"nursery":0.1,"vegan":0.1,"aeroport":0,"club":0.1,"starbucks":1}},{"name":"FeedHenry","city":"Burlington","geo":{"type":"Point","coordinates":[-71.2089211,42.4851017]},"money":8135100.0,"category_code":"enterprise","longitude":-71.2089211,"latitude":42.4851017,"point":{"companies_money":0.2,"technology_companies":0,"old_companies":0.2,"nursery":0.2,"vegan":0.3,"aeroport":0,"club":0.1,"starbucks":1}},{"name":"HyperWeek","city":"Geneva","geo":{"type":"Point","coordinates":[6.1503245,46.2121463]},"money":118410900.0,"category_code":"social","longitude":6.1503245,"latitude":46.2121463,"point":{"companies_money":0.2,"technology_companies":0,"old_companies":0.2,"nursery":0.2,"vegan":0.3,"aeroport":0,"club":1,"starbucks":0.6}},{"name":"StudyBlue","city":"Madison","geo":{"type":"Point","coordinates":[-89.39256,43.068006]},"money":167221500.0000000298,"category_code":"education","longitude":-89.39256,"latitude":43.068006,"point":{"companies_money":0.2,"technology_companies":0,"old_companies":0.2,"nursery":0.1,"vegan":0.5,"aeroport":0,"club":0.9,"starbucks":1}},{"name":"Jolicloud","city":"Paris","geo":{"type":"Point","coordinates":[2.3509871,48.8566667]},"money":37963800.0,"category_code":"enterprise","longitude":2.3509871,"latitude":48.8566667,"point":{"companies_money":0.3,"technology_companies":0.2,"old_companies":0.3,"nursery":0.2,"vegan":1,"aeroport":0,"club":1,"starbucks":1}},{"name":"ScaleMP","city":"Cupertino","geo":{"type":"Point","coordinates":[-122.0385792,37.3229727]},"money":7231200.0,"category_code":"software","longitude":-122.0385792,"latitude":37.3229727,"point":{"companies_money":0.2,"technology_companies":0.2,"old_companies":0.2,"nursery":0.2,"vegan":0.3,"aeroport":0,"club":0.1,"starbucks":1}},{"name":"VisualOn","city":"Santa Clara","geo":{"type":"Point","coordinates":[-121.955879,37.270518]},"money":28020900.0,"category_code":"software","longitude":-121.955879,"latitude":37.270518,"point":{"companies_money":0.2,"technology_companies":0.2,"old_companies":0.2,"nursery":0.1,"vegan":0.1,"aeroport":0,"club":0.1,"starbucks":1}},{"name":"Meez","city":"San Francisco","geo":{"type":"Point","coordinates":[-122.397582,37.785271]},"money":92197800.0,"category_code":"hardware","longitude":-122.397582,"latitude":37.785271,"point":{"companies_money":0.5,"technology_companies":0.2,"old_companies":0.5,"nursery":0.2,"vegan":1,"aeroport":0,"club":1,"starbucks":1}},{"name":"Talari Networks","city":"San Jose","geo":{"type":"Point","coordinates":[-121.949417,37.317735]},"money":407658900.0,"category_code":"enterprise","longitude":-121.949417,"latitude":37.317735,"point":{"companies_money":0.2,"technology_companies":0,"old_companies":0.2,"nursery":0.1,"vegan":0.3,"aeroport":0,"club":0.1,"starbucks":1}},{"name":"Heyzap","city":"San Francisco","geo":{"type":"Point","coordinates":[-122.4041485,37.7905538]},"money":720408300.0,"category_code":"games_video","longitude":-122.4041485,"latitude":37.7905538,"point":{"companies_money":0.5,"technology_companies":0.2,"old_companies":0.5,"nursery":0.2,"vegan":1,"aeroport":0,"club":1,"starbucks":1}},{"name":"Talari Networks","city":"Morrisville","geo":{"type":"Point","coordinates":[-78.8267112,35.8535092]},"money":407658900.0,"category_code":"enterprise","longitude":-78.8267112,"latitude":35.8535092,"point":{"companies_money":0.2,"technology_companies":0,"old_companies":0.2,"nursery":0.1,"vegan":0.2,"aeroport":0,"club":0.1,"starbucks":1}},{"name":"Shutl","city":"London","geo":{"type":"Point","coordinates":[-0.1020265,51.5196135]},"money":870150722.0,"category_code":"ecommerce","longitude":-0.1020265,"latitude":51.5196135,"point":{"companies_money":0.3,"technology_companies":0.2,"old_companies":0.3,"nursery":0.5,"vegan":1,"aeroport":0,"club":0.7,"starbucks":0.6}},{"name":"AppZero","city":"Andover","geo":{"type":"Point","coordinates":[-71.1469003,42.6751888]},"money":136488900.0,"category_code":"software","longitude":-71.1469003,"latitude":42.6751888,"point":{"companies_money":0.2,"technology_companies":0.2,"old_companies":0.2,"nursery":0.1,"vegan":0.1,"aeroport":0,"club":0.1,"starbucks":1}},{"name":"Tinychat","city":"Glen Cove","geo":{"type":"Point","coordinates":[-72.5196907,42.3756409]},"money":13558500.0,"category_code":"web","longitude":-72.5196907,"latitude":42.3756409,"point":{"companies_money":0.2,"technology_companies":0.2,"old_companies":0.2,"nursery":0.1,"vegan":0.2,"aeroport":0,"club":0.4,"starbucks":1}},{"name":"MyLikes","city":"San Francisco","geo":{"type":"Point","coordinates":[-122.408914,37.777995]},"money":563129700.0000001192,"category_code":"advertising","longitude":-122.408914,"latitude":37.777995,"point":{"companies_money":0.5,"technology_companies":0.2,"old_companies":0.5,"nursery":0.2,"vegan":1,"aeroport":0,"club":1,"starbucks":0.8}},{"name":"Cognitive Match","city":"New York","geo":{"type":"Point","coordinates":[-73.9822211,40.7454098]},"money":92197800.0,"category_code":"advertising","longitude":-73.9822211,"latitude":40.7454098,"point":{"companies_money":0.5,"technology_companies":0.3,"old_companies":0.5,"nursery":1,"vegan":1,"aeroport":0,"club":1,"starbucks":1}},{"name":"AppNeta","city":"SOUTH BOSTON","geo":{"type":"Point","coordinates":[-71.24756,42.318138]},"money":504376200.0000000596,"category_code":"software","longitude":-71.24756,"latitude":42.318138,"point":{"companies_money":0.2,"technology_companies":0.2,"old_companies":0.2,"nursery":0.2,"vegan":0.1,"aeroport":0,"club":0.2,"starbucks":1}},{"name":"Cognitive Match","city":"London","geo":{"type":"Point","coordinates":[-0.0936688,51.5119418]},"money":92197800.0,"category_code":"advertising","longitude":-0.0936688,"latitude":51.5119418,"point":{"companies_money":0.3,"technology_companies":0.2,"old_companies":0.3,"nursery":0.3,"vegan":1,"aeroport":0,"club":1,"starbucks":1}},{"name":"Cognitive Match","city":"Palo Alto","geo":{"type":"Point","coordinates":[-122.1156934,37.380653]},"money":92197800.0,"category_code":"advertising","longitude":-122.1156934,"latitude":37.380653,"point":{"companies_money":0.2,"technology_companies":0,"old_companies":0.2,"nursery":0.1,"vegan":0.1,"aeroport":0,"club":0.1,"starbucks":1}},{"name":"Gridstore","city":"Mountain View","geo":{"type":"Point","coordinates":[-122.0884286,37.4189073]},"money":25000000.0,"category_code":"network_hosting","longitude":-122.0884286,"latitude":37.4189073,"point":{"companies_money":0.3,"technology_companies":0.2,"old_companies":0.3,"nursery":0.1,"vegan":0.2,"aeroport":0,"club":0.1,"starbucks":1}},{"name":"GameChanger Media","city":"New York","geo":{"type":"Point","coordinates":[-74.0136605,40.7078343]},"money":329019600.0,"category_code":"software","longitude":-74.0136605,"latitude":40.7078343,"point":{"companies_money":0.3,"technology_companies":0.2,"old_companies":0.3,"nursery":0.6,"vegan":1,"aeroport":0,"club":0.8,"starbucks":1}},{"name":"Tongal","city":"Santa Monica","geo":{"type":"Point","coordinates":[-118.489748,34.007112]},"money":14462400.0,"category_code":"web","longitude":-118.489748,"latitude":34.007112,"point":{"companies_money":0.3,"technology_companies":0.2,"old_companies":0.3,"nursery":0.1,"vegan":0.9,"aeroport":0,"club":0.1,"starbucks":0.6}},{"name":"oneforty","city":"Cambridge","geo":{"type":"Point","coordinates":[-71.101375,42.364014]},"money":212416500.0,"category_code":"enterprise","longitude":-71.101375,"latitude":42.364014,"point":{"companies_money":0.3,"technology_companies":0.2,"old_companies":0.3,"nursery":0.1,"vegan":1,"aeroport":0,"club":0.7,"starbucks":1}},{"name":"Z2Live","city":"Seattle","geo":{"type":"Point","coordinates":[-122.3399782,47.6103008]},"money":58753500.0,"category_code":"games_video","longitude":-122.3399782,"latitude":47.6103008,"point":{"companies_money":0.2,"technology_companies":0.2,"old_companies":0.2,"nursery":0.4,"vegan":1,"aeroport":0,"club":1,"starbucks":1}},{"name":"Chartbeat","city":"New York","geo":{"type":"Point","coordinates":[-73.990967,40.73343]},"money":131065500.0000000149,"category_code":"analytics","longitude":-73.990967,"latitude":40.73343,"point":{"companies_money":0.6,"technology_companies":0.4,"old_companies":0.6,"nursery":0.4,"vegan":1,"aeroport":0,"club":1,"starbucks":1}},{"name":"Brandsclub","city":"Sao Paulo","geo":{"type":"Point","coordinates":[-46.6388182,-23.5489433]},"money":15366300.0,"category_code":"ecommerce","longitude":-46.6388182,"latitude":-23.5489433,"point":{"companies_money":0.2,"technology_companies":0.2,"old_companies":0.2,"nursery":0.3,"vegan":1,"aeroport":0,"club":1,"starbucks":1}},{"name":"CoTweet","city":"San Francisco","geo":{"type":"Point","coordinates":[-122.3764714,37.7405936]},"money":9942900.0,"category_code":"advertising","longitude":-122.3764714,"latitude":37.7405936,"point":{"companies_money":0.2,"technology_companies":0,"old_companies":0.2,"nursery":0.1,"vegan":0.1,"aeroport":0,"club":0.1,"starbucks":1}},{"name":"MyEdu","city":"Austin","geo":{"type":"Point","coordinates":[-97.750154,30.288159]},"money":169029300.0,"category_code":"education","longitude":-97.750154,"latitude":30.288159,"point":{"companies_money":0.3,"technology_companies":0,"old_companies":0.3,"nursery":0.2,"vegan":0.3,"aeroport":0,"club":0.1,"starbucks":1}},{"name":"Factery","city":"Menlo Park","geo":{"type":"Point","coordinates":[-122.1802812,37.4484914]},"money":10846800.0,"category_code":"web","longitude":-122.1802812,"latitude":37.4484914,"point":{"companies_money":0.3,"technology_companies":0.3,"old_companies":0.3,"nursery":0.1,"vegan":0.1,"aeroport":0,"club":0.1,"starbucks":0.5}},{"name":"Ikanos","city":"Fremont","geo":{"type":"Point","coordinates":[-121.9417078,37.4734314]},"money":37963800.0,"category_code":"enterprise","longitude":-121.9417078,"latitude":37.4734314,"point":{"companies_money":0.2,"technology_companies":0,"old_companies":0.2,"nursery":0.1,"vegan":0.1,"aeroport":0,"club":0.1,"starbucks":1}},{"name":"Simulmedia","city":"New York","geo":{"type":"Point","coordinates":[-73.994797,40.727216]},"money":517934700.0,"category_code":"advertising","longitude":-73.994797,"latitude":40.727216,"point":{"companies_money":0.4,"technology_companies":0.3,"old_companies":0.4,"nursery":0.5,"vegan":1,"aeroport":0,"club":1,"starbucks":1}},{"name":"Shareaholic","city":"Boston","geo":{"type":"Point","coordinates":[-71.1032591,42.3647559]},"money":493529400.0,"category_code":"web","longitude":-71.1032591,"latitude":42.3647559,"point":{"companies_money":0.3,"technology_companies":0.2,"old_companies":0.3,"nursery":0.2,"vegan":1,"aeroport":0,"club":0.7,"starbucks":1}},{"name":"drchrono","city":"Mountain View","geo":{"type":"Point","coordinates":[-122.0933053,37.4202074]},"money":373310700.0,"category_code":"medical","longitude":-122.0933053,"latitude":37.4202074,"point":{"companies_money":0.3,"technology_companies":0.2,"old_companies":0.3,"nursery":0.1,"vegan":0.2,"aeroport":0,"club":0.1,"starbucks":1}},{"name":"The Resumator","city":"Pittsburgh","geo":{"type":"Point","coordinates":[-80.001933,40.438423]},"money":269362200.0000000596,"category_code":"software","longitude":-80.001933,"latitude":40.438423,"point":{"companies_money":0.2,"technology_companies":0.2,"old_companies":0.2,"nursery":0.4,"vegan":0.5,"aeroport":0,"club":0.6,"starbucks":1}},{"name":"Infochimps","city":"Austin","geo":{"type":"Point","coordinates":[-97.7588828,30.2734822]},"money":483586500.0,"category_code":"enterprise","longitude":-97.7588828,"latitude":30.2734822,"point":{"companies_money":0.3,"technology_companies":0,"old_companies":0.3,"nursery":0.1,"vegan":0.4,"aeroport":0,"club":0.4,"starbucks":1}},{"name":"Sofa Labs","city":"San Mateo","geo":{"type":"Point","coordinates":[-122.3229235,37.5646055]},"money":10846800.0,"category_code":"social","longitude":-122.3229235,"latitude":37.5646055,"point":{"companies_money":0.5,"technology_companies":0.3,"old_companies":0.5,"nursery":0.5,"vegan":0.1,"aeroport":0,"club":0.2,"starbucks":1}},{"name":"Fliptop","city":"San Francisco","geo":{"type":"Point","coordinates":[-122.419209,37.775206]},"money":613748100.0,"category_code":"enterprise","longitude":-122.419209,"latitude":37.775206,"point":{"companies_money":0.3,"technology_companies":0,"old_companies":0.3,"nursery":0.2,"vegan":1,"aeroport":0,"club":1,"starbucks":1}},{"name":"ClickFuel","city":"Burlington","geo":{"type":"Point","coordinates":[-71.0680027,42.3406534]},"money":8135100.0,"category_code":"advertising","longitude":-71.0680027,"latitude":42.3406534,"point":{"companies_money":0.2,"technology_companies":0,"old_companies":0.2,"nursery":0.2,"vegan":0.4,"aeroport":0,"club":0.2,"starbucks":1}},{"name":"Gravity","city":"Santa Monica","geo":{"type":"Point","coordinates":[-118.489681,34.007967]},"money":186203400.0000000298,"category_code":"advertising","longitude":-118.489681,"latitude":34.007967,"point":{"companies_money":0.3,"technology_companies":0.2,"old_companies":0.3,"nursery":0.1,"vegan":0.9,"aeroport":0,"club":0.1,"starbucks":0.5}},{"name":"Vaultive","city":"New York","geo":{"type":"Point","coordinates":[-74.011114,40.707954]},"money":9942900.0,"category_code":"security","longitude":-74.011114,"latitude":40.707954,"point":{"companies_money":0.3,"technology_companies":0.2,"old_companies":0.3,"nursery":0.9,"vegan":1,"aeroport":0,"club":0.8,"starbucks":1}},{"name":"Althea Systems","city":"Bangalore","geo":{"type":"Point","coordinates":[77.6136847,12.9349604]},"money":2711700.0,"category_code":"hardware","longitude":77.6136847,"latitude":12.9349604,"point":{"companies_money":0.2,"technology_companies":0,"old_companies":0.2,"nursery":0.1,"vegan":0.5,"aeroport":0,"club":0.1,"starbucks":0.3}},{"name":"Cognitive Match","city":"Omaha","geo":{"type":"Point","coordinates":[-96.0791435,41.2601663]},"money":92197800.0,"category_code":"advertising","longitude":-96.0791435,"latitude":41.2601663,"point":{"companies_money":0.2,"technology_companies":0,"old_companies":0.2,"nursery":0.1,"vegan":0.1,"aeroport":0,"club":0.1,"starbucks":1}},{"name":"VistaGen Therapeutics","city":"South San Francisco","geo":{"type":"Point","coordinates":[-122.3843489,37.6656476]},"money":373310700.0,"category_code":"biotech","longitude":-122.3843489,"latitude":37.6656476,"point":{"companies_money":0.2,"technology_companies":0,"old_companies":0.2,"nursery":0.1,"vegan":0.1,"aeroport":0,"club":0.1,"starbucks":1}},{"name":"Ykone","city":"Paris","geo":{"type":"Point","coordinates":[2.3509871,48.8566667]},"money":15000000.0,"category_code":"web","longitude":2.3509871,"latitude":48.8566667,"point":{"companies_money":0.3,"technology_companies":0.2,"old_companies":0.3,"nursery":0.2,"vegan":1,"aeroport":0,"club":1,"starbucks":1}},{"name":"ipadio","city":"London","geo":{"type":"Point","coordinates":[0.0118608,51.8205815]},"money":14462400.0,"category_code":"messaging","longitude":0.0118608,"latitude":51.8205815,"point":{"companies_money":0.2,"technology_companies":0,"old_companies":0.2,"nursery":0.1,"vegan":0.1,"aeroport":0,"club":0.1,"starbucks":1}},{"name":"Solix Biofuels","city":"Fort Collins","geo":{"type":"Point","coordinates":[-105.0766501,40.5932386]},"money":621883200.0,"category_code":"cleantech","longitude":-105.0766501,"latitude":40.5932386,"point":{"companies_money":0.2,"technology_companies":0,"old_companies":0.2,"nursery":0.1,"vegan":0.2,"aeroport":0,"club":0.2,"starbucks":1}},{"name":"Applied Genetics Technologies Corporation","city":"Alachua","geo":{"type":"Point","coordinates":[-82.4768036,29.7847641]},"money":705945900.0,"category_code":"biotech","longitude":-82.4768036,"latitude":29.7847641,"point":{"companies_money":0.2,"technology_companies":0,"old_companies":0.2,"nursery":0.1,"vegan":0.1,"aeroport":0,"club":0.1,"starbucks":1}},{"name":"Clovis Oncology","city":"Boulder","geo":{"type":"Point","coordinates":[-105.259041,40.026]},"money":322692300.0,"category_code":"biotech","longitude":-105.259041,"latitude":40.026,"point":{"companies_money":0.2,"technology_companies":0,"old_companies":0.2,"nursery":0.3,"vegan":0.3,"aeroport":0,"club":0.2,"starbucks":0.6}},{"name":"Layar","city":"Amsterdam","geo":{"type":"Point","coordinates":[4.8928722,52.3657578]},"money":121122600.0,"category_code":"mobile","longitude":4.8928722,"latitude":52.3657578,"point":{"companies_money":0.2,"technology_companies":0.2,"old_companies":0.2,"nursery":0.2,"vegan":1,"aeroport":0,"club":1,"starbucks":0.6}},{"name":"Delphi","city":"","geo":{"type":"Point","coordinates":[-83.16134,42.603532]},"money":7231200.0,"category_code":"cleantech","longitude":-83.16134,"latitude":42.603532,"point":{"companies_money":0.2,"technology_companies":0,"old_companies":0.2,"nursery":0.2,"vegan":0.1,"aeroport":0,"club":0.1,"starbucks":1}},{"name":"ticketea","city":"Madrid","geo":{"type":"Point","coordinates":[-3.7061764,40.4455155]},"money":517934700.0,"category_code":"ecommerce","longitude":-3.7061764,"latitude":40.4455155,"point":{"companies_money":0.2,"technology_companies":0.2,"old_companies":0.2,"nursery":0.2,"vegan":0.3,"aeroport":0,"club":1,"starbucks":0.6}},{"name":"ChallengePost","city":"New York","geo":{"type":"Point","coordinates":[-74.00717,40.7408042]},"money":41579400.0,"category_code":"web","longitude":-74.00717,"latitude":40.7408042,"point":{"companies_money":0.5,"technology_companies":0.4,"old_companies":0.5,"nursery":0.1,"vegan":1,"aeroport":0,"club":1,"starbucks":1}},{"name":"Teambox","city":"Barcelona","geo":{"type":"Point","coordinates":[2.1920231,41.4063346]},"money":610132500.0,"category_code":"web","longitude":2.1920231,"latitude":41.4063346,"point":{"companies_money":0.2,"technology_companies":0.2,"old_companies":0.2,"nursery":0.3,"vegan":0.4,"aeroport":0,"club":0.7,"starbucks":0.3}},{"name":"Tiny Speck","city":"Vancouver","geo":{"type":"Point","coordinates":[-123.109217,49.2824551]},"money":155470800.0,"category_code":"games_video","longitude":-123.109217,"latitude":49.2824551,"point":{"companies_money":0.2,"technology_companies":0.2,"old_companies":0.2,"nursery":0.2,"vegan":1,"aeroport":0,"club":1,"starbucks":1}},{"name":"Advanced Power Projects","city":"Fremont","geo":{"type":"Point","coordinates":[-121.9178417,37.5252461]},"money":11750700.0,"category_code":"cleantech","longitude":-121.9178417,"latitude":37.5252461,"point":{"companies_money":0.2,"technology_companies":0,"old_companies":0.2,"nursery":0.2,"vegan":0.1,"aeroport":0,"club":0.1,"starbucks":1}},{"name":"Getyoo","city":"Brussels","geo":{"type":"Point","coordinates":[4.3464721,50.83997]},"money":113000000.0,"category_code":"mobile","longitude":4.3464721,"latitude":50.83997,"point":{"companies_money":0.2,"technology_companies":0.2,"old_companies":0.2,"nursery":1,"vegan":1,"aeroport":0,"club":1,"starbucks":0.5}}]