[{"name":"Yipit","city":"New York","money":682444500.0000001192,"category_code":"web","longitude":-73.987764,"latitude":40.744618,"point":0.7},{"name":"Starbucks","city":"New York","money":null,"category_code":"Coffee Shop","longitude":40.74900081,"latitude":-73.99035964,"point":0.0},{"name":"Starbucks","city":"New York","money":null,"category_code":"Coffee Shop","longitude":40.75052701,"latitude":-73.98815428,"point":0.0},{"name":"Starbucks","city":"New York","money":null,"category_code":"Coffee Shop","longitude":40.743789,"latitude":-73.98567,"point":0.0},{"name":"Starbucks","city":"New York","money":null,"category_code":"Coffee Shop","longitude":40.740383,"latitude":-73.991165,"point":0.0},{"name":"Starbucks","city":"New York","money":null,"category_code":"Coffee Shop","longitude":40.749138,"latitude":-73.983826,"point":0.0},{"name":"Starbucks","city":"New York","money":null,"category_code":"Coffee Shop","longitude":40.745068,"latitude":-73.98686,"point":0.0},{"name":"Starbucks","city":"New York","money":null,"category_code":"Coffee Shop","longitude":40.748234,"latitude":-73.98563,"point":0.0},{"name":"Starbucks","city":"New York","money":null,"category_code":"Coffee Shop","longitude":40.751,"latitude":-73.987015,"point":0.0},{"name":"Starbucks","city":"New York","money":null,"category_code":"Coffee Shop","longitude":40.7509389019,"latitude":-73.9890468121,"point":0.0},{"name":"Starbucks","city":"New York","money":null,"category_code":"Coffee Shop","longitude":40.7454707144,"latitude":-73.9824185607,"point":0.0},{"name":"Starbucks","city":"New York","money":null,"category_code":"Coffee Shop","longitude":40.7475495747,"latitude":-73.9956235886,"point":0.0},{"name":"Starbucks","city":"New York","money":null,"category_code":"Coffee Shop","longitude":40.746723,"latitude":-73.981094,"point":0.0},{"name":"Starbucks","city":"New York","money":null,"category_code":"Coffee Shop","longitude":40.75119363,"latitude":-73.99093502,"point":0.0},{"name":"Starbucks","city":"New York","money":null,"category_code":"Coffee Shop","longitude":40.746975,"latitude":-73.993324,"point":0.0},{"name":"Starbucks","city":"New York","money":null,"category_code":"Coffee Shop","longitude":40.74405161,"latitude":-73.98373659,"point":0.0},{"name":"Starbucks","city":"New York","money":null,"category_code":"Coffee Shop","longitude":40.74179,"latitude":-73.980774,"point":0.0},{"name":"Starbucks","city":"New York","money":null,"category_code":"Coffee Shop","longitude":40.73628194,"latitude":-73.99120667,"point":0.0},{"name":"Starbucks","city":"New York","money":null,"category_code":"Coffee Shop","longitude":40.7402057168,"latitude":-73.9836729639,"point":0.0},{"name":"Starbucks","city":"New York","money":null,"category_code":"Coffee Shop","longitude":40.7503579115,"latitude":-73.9876085439,"point":0.0},{"name":"Starbucks","city":"New York","money":null,"category_code":"Coffee Shop","longitude":40.744307413,"latitude":-73.995462178,"point":0.0},{"name":"Starbucks","city":"New York","money":null,"category_code":"Coffee Shop","longitude":40.74166,"latitude":-73.99031,"point":0.0},{"name":"Starbucks","city":"New York","money":null,"category_code":"Coffee Shop","longitude":40.7489585,"latitude":-73.99231501,"point":0.0},{"name":"Starbucks","city":"New York","money":null,"category_code":"Coffee Shop","longitude":40.74383,"latitude":-73.988884,"point":0.0},{"name":"Starbucks","city":"New York","money":null,"category_code":"Coffee Shop","longitude":40.748974,"latitude":-73.98229,"point":0.0},{"name":"Starbucks","city":"New York","money":null,"category_code":"Coffee Shop","longitude":40.73790176,"latitude":-73.98835362,"point":0.0},{"name":"Starbucks","city":"New York","money":null,"category_code":"Coffee Shop","longitude":40.74927198,"latitude":-73.98927764,"point":0.0},{"name":"Starbucks","city":"New York","money":null,"category_code":"Coffee Shop","longitude":40.7520899545,"latitude":-73.981358929,"point":0.0},{"name":"Starbucks","city":"New York","money":null,"category_code":"Coffee Shop","longitude":40.743572,"latitude":-73.99203,"point":0.0},{"name":"Starbucks","city":"New York","money":null,"category_code":"Coffee Shop","longitude":40.74051,"latitude":-73.98433,"point":0.0},{"name":"Starbucks","city":"New York","money":null,"category_code":"Coffee Shop","longitude":40.74016,"latitude":-73.98697,"point":0.0},{"name":"Apple Seeds","city":"New York","money":null,"category_code":"Daycare","longitude":40.7432482777,"latitude":-73.9896135239,"point":0.0},{"name":"Ivy Prep Early Learning Academy","city":"New York","money":null,"category_code":"School","longitude":40.74502786,"latitude":-73.99086729,"point":0.0},{"name":"Hello Sitter","city":"New York","money":null,"category_code":"Daycare","longitude":40.74679,"latitude":-73.99255,"point":0.0},{"name":"The Toy Insider","city":"New York","money":null,"category_code":"Daycare","longitude":40.7467924,"latitude":-73.9932482,"point":0.0},{"name":"New York Kids Club","city":"New York","money":null,"category_code":"Daycare","longitude":40.7397718751,"latitude":-73.9876088815,"point":0.0},{"name":"Kumon Math and Reading Center of Chelsea","city":"New York","money":null,"category_code":"Daycare","longitude":40.743057,"latitude":-73.994713,"point":0.0},{"name":"Explore + Discover Early Learning Center","city":"New York","money":null,"category_code":"Daycare","longitude":40.739707569,"latitude":-73.9792218762,"point":0.0},{"name":"CCLC at 90 Park","city":"New York","money":null,"category_code":"Daycare","longitude":40.7506666066,"latitude":-73.9792600847,"point":0.0},{"name":"Park Avenue KinderCare","city":"New York","money":null,"category_code":"Daycare","longitude":40.750687,"latitude":-73.979262,"point":0.0},{"name":"The Seville","city":"New York","money":null,"category_code":"Nightclub","longitude":40.7446423,"latitude":-73.9855077,"point":0.0},{"name":"Las Chicas Locas","city":"New York","money":null,"category_code":"Nightclub","longitude":40.7490417526,"latitude":-73.9863373493,"point":0.0},{"name":"Liberty Hall at Ace Hotel New York","city":"New York","money":null,"category_code":"Nightclub","longitude":40.7458377033,"latitude":-73.9880966827,"point":0.0},{"name":"The Rose Bar","city":"New York","money":null,"category_code":"Nightclub","longitude":40.7384941654,"latitude":-73.9854889141,"point":0.0},{"name":"SPiN New York","city":"New York","money":null,"category_code":"Bar","longitude":40.7402964382,"latitude":-73.9869660791,"point":0.0},{"name":"Frim Fram Jam","city":"New York","money":null,"category_code":"Nightclub","longitude":40.7501739736,"latitude":-73.9949635589,"point":0.0},{"name":"230 Fifth Rooftop Lounge","city":"New York","money":null,"category_code":"Lounge","longitude":40.7442324166,"latitude":-73.9886600592,"point":0.0},{"name":"Squares","city":"New York","money":null,"category_code":"Nightclub","longitude":40.7422475161,"latitude":-73.9854259499,"point":0.0},{"name":"Stumptown Coffee Roasters","city":"New York","money":null,"category_code":"Coffee Shop","longitude":40.745835358,"latitude":-73.9880713326,"point":0.0},{"name":"Mission Nightclub","city":"New York","money":null,"category_code":"Nightclub","longitude":40.7479342525,"latitude":-73.9949617044,"point":0.0},{"name":"New York Nightclubs VIP","city":"New York","money":null,"category_code":"Nightclub","longitude":40.7447697098,"latitude":-73.9871048927,"point":0.0},{"name":"\u041a\u0413\u0411","city":"New York","money":null,"category_code":"Nightclub","longitude":40.73903219,"latitude":-73.9958727646,"point":0.0},{"name":"Eden","city":"New York","money":null,"category_code":"Nightclub","longitude":40.7485248947,"latitude":-73.9864303761,"point":0.0},{"name":"Epoca","city":"New York","money":null,"category_code":"Nightclub","longitude":40.7485686824,"latitude":-73.9905698493,"point":0.0},{"name":"Kowloon Palace Discotheque","city":"New York","money":null,"category_code":"Nightclub","longitude":40.7497058276,"latitude":-73.9878266261,"point":0.0},{"name":"SLATE","city":"New York","money":null,"category_code":"Lounge","longitude":40.7413475469,"latitude":-73.9931945966,"point":0.0},{"name":"Vanity59","city":"New York","money":null,"category_code":"Nightclub","longitude":40.7416229521,"latitude":-73.9936485951,"point":0.0},{"name":"Retroclubnyc","city":"New York","money":null,"category_code":"Nightclub","longitude":40.743954,"latitude":-73.994888,"point":0.0},{"name":"Studio 21","city":"New York","money":null,"category_code":"Nightclub","longitude":40.741581568,"latitude":-73.9935849274,"point":0.0},{"name":"Club 28","city":"New York","money":null,"category_code":"Nightclub","longitude":40.747871558,"latitude":-73.994935635,"point":0.0},{"name":"The Cutting Room","city":"New York","money":null,"category_code":"Nightclub","longitude":40.7459855808,"latitude":-73.9828008164,"point":0.0},{"name":"Holy Mountain","city":"New York","money":null,"category_code":"Nightclub","longitude":40.7493210872,"latitude":-73.9944550587,"point":0.0},{"name":"J'adore Nightclub","city":"New York","money":null,"category_code":"Nightclub","longitude":40.738886872,"latitude":-73.9942427228,"point":0.0},{"name":"The Piano","city":"New York","money":null,"category_code":"Nightclub","longitude":40.7376218967,"latitude":-73.9915225077,"point":0.0},{"name":"Superlounge","city":"New York","money":null,"category_code":"Nightclub","longitude":40.7452290824,"latitude":-73.9981861243,"point":0.0},{"name":"Twenty Below","city":"New York","money":null,"category_code":"Nightclub","longitude":40.7521937828,"latitude":-73.9836256308,"point":0.0},{"name":"Club Holic","city":"New York","money":null,"category_code":"Nightclub","longitude":40.752200967,"latitude":-73.9835401946,"point":0.0},{"name":"Off Site","city":"New York","money":null,"category_code":"Nightclub","longitude":40.7526395997,"latitude":-73.9845324108,"point":0.0},{"name":"Bounce Sporting Club","city":"New York","money":null,"category_code":"Sports Bar","longitude":40.7414087561,"latitude":-73.9932224673,"point":0.0},{"name":"The Red Room","city":"New York","money":null,"category_code":"Nightclub","longitude":40.7439347094,"latitude":-73.9840383485,"point":0.0},{"name":"sweetgreen","city":"New York","money":null,"category_code":"Vegetarian \/ Vegan Restaurant","longitude":40.7448683766,"latitude":-73.9888395292,"point":0.0},{"name":"Dig Inn","city":"New York","money":null,"category_code":"Vegetarian \/ Vegan Restaurant","longitude":40.7452636582,"latitude":-73.9887920303,"point":0.0},{"name":"Hangawi","city":"New York","money":null,"category_code":"Vegetarian \/ Vegan Restaurant","longitude":40.746927213,"latitude":-73.9847788048,"point":0.0},{"name":"by CHLOE","city":"New York","money":null,"category_code":"Vegetarian \/ Vegan Restaurant","longitude":40.7419722,"latitude":-73.9929188,"point":0.0},{"name":"Terri","city":"New York","money":null,"category_code":"Vegetarian \/ Vegan Restaurant","longitude":40.742529,"latitude":-73.992312,"point":0.0},{"name":"Mulberry & Vine","city":"New York","money":null,"category_code":"Vegetarian \/ Vegan Restaurant","longitude":40.745295,"latitude":-73.990464,"point":0.0},{"name":"Bombay Sandwich Co.","city":"New York","money":null,"category_code":"Vegetarian \/ Vegan Restaurant","longitude":40.7451836541,"latitude":-73.9906440382,"point":0.0},{"name":"Dig Inn","city":"New York","money":null,"category_code":"Vegetarian \/ Vegan Restaurant","longitude":40.740791,"latitude":-73.988346,"point":0.0},{"name":"abcV","city":"New York","money":null,"category_code":"Vegetarian \/ Vegan Restaurant","longitude":40.7381824229,"latitude":-73.9892103124,"point":0.0},{"name":"Franchia","city":"New York","money":null,"category_code":"Vegetarian \/ Vegan Restaurant","longitude":40.7475490451,"latitude":-73.9811238022,"point":0.0},{"name":"Marty's V Burger","city":"New York","money":null,"category_code":"Vegetarian \/ Vegan Restaurant","longitude":40.7419704173,"latitude":-73.9827095809,"point":0.0},{"name":"Juice Press","city":"New York","money":null,"category_code":"Vegetarian \/ Vegan Restaurant","longitude":40.7411829434,"latitude":-73.990508616,"point":0.0},{"name":"Juice Generation","city":"New York","money":null,"category_code":"Vegetarian \/ Vegan Restaurant","longitude":40.739937,"latitude":-73.98553,"point":0.0},{"name":"Nana Thai Street","city":"New York","money":null,"category_code":"Vegetarian \/ Vegan Restaurant","longitude":40.739568,"latitude":-73.988513,"point":0.0},{"name":"The Cinnamon Snail","city":"New York","money":null,"category_code":"Vegetarian \/ Vegan Restaurant","longitude":40.7505810796,"latitude":-73.9916412047,"point":0.0},{"name":"Chennai Garden by Tiffin Wallah","city":"New York","money":null,"category_code":"Vegetarian \/ Vegan Restaurant","longitude":40.7428257406,"latitude":-73.982834855,"point":0.0},{"name":"sweetgreen","city":"New York","money":null,"category_code":"Vegetarian \/ Vegan Restaurant","longitude":40.7380613354,"latitude":-73.9912233455,"point":0.0},{"name":"Xyst","city":"New York","money":null,"category_code":"Vegetarian \/ Vegan Restaurant","longitude":40.7386861442,"latitude":-73.9945037025,"point":0.0},{"name":"Bombay Sandwich Co.","city":"New York","money":null,"category_code":"Vegetarian \/ Vegan Restaurant","longitude":40.7519744528,"latitude":-73.9911794937,"point":0.0},{"name":"Dig Inn","city":"New York","money":null,"category_code":"Vegetarian \/ Vegan Restaurant","longitude":40.7531595105,"latitude":-73.9877676872,"point":0.0},{"name":"Jack\u2019s Stir Brew Coffee","city":"New York","money":null,"category_code":"Vegetarian \/ Vegan Restaurant","longitude":40.7434854055,"latitude":-73.9943790436,"point":0.0},{"name":"Maoz Vegetarian","city":"New York","money":null,"category_code":"Vegetarian \/ Vegan Restaurant","longitude":40.7362283713,"latitude":-73.9894749946,"point":0.0},{"name":"The Hummus & Pita Co","city":"New York","money":null,"category_code":"Vegetarian \/ Vegan Restaurant","longitude":40.7392690927,"latitude":-73.9954926679,"point":0.0},{"name":"Natural Frontier Market","city":"New York","money":null,"category_code":"Vegetarian \/ Vegan Restaurant","longitude":40.7397231881,"latitude":-73.9825571821,"point":0.0},{"name":"Maguro Sushi","city":"New York","money":null,"category_code":"Vegetarian \/ Vegan Restaurant","longitude":40.7421755735,"latitude":-73.981259837,"point":0.0},{"name":"Supernatural","city":"New York","money":null,"category_code":"Vegetarian \/ Vegan Restaurant","longitude":40.73817,"latitude":-73.988693,"point":0.0},{"name":"VLife","city":"New York","money":null,"category_code":"Vegetarian \/ Vegan Restaurant","longitude":40.7481623897,"latitude":-73.9927172048,"point":0.0},{"name":"Juice Press","city":"New York","money":null,"category_code":"Vegetarian \/ Vegan Restaurant","longitude":40.7500416764,"latitude":-73.9903653797,"point":0.0},{"name":"&pizza","city":"New York","money":null,"category_code":"Pizza Place","longitude":40.7452045794,"latitude":-73.9882314205,"point":0.0},{"name":"Pondicheri","city":"New York","money":null,"category_code":"Indian Restaurant","longitude":40.7444284361,"latitude":-73.9885589647,"point":0.0},{"name":"Yipit","city":"New York","money":682444500.0000001192,"category_code":"web","longitude":-73.987764,"latitude":40.744618,"point":0.0},{"name":"Cognitive Match","city":"New York","money":92197800.0,"category_code":"advertising","longitude":-73.9822211,"latitude":40.7454098,"point":0.0},{"name":"Chartbeat","city":"New York","money":131065500.0000000149,"category_code":"analytics","longitude":-73.990967,"latitude":40.73343,"point":0.0},{"name":"PeekYou","city":"New York","money":165413700.0,"category_code":"search","longitude":-73.985506,"latitude":40.757929,"point":0.0},{"name":"ChallengePost","city":"New York","money":41579400.0,"category_code":"web","longitude":-74.00717,"latitude":40.7408042,"point":0.0}]